lat,lon,name,namecolor,fontsize,marker,markercolor,markersize
32.983942, 38.295797,A1,red,6,+,blue,20
31.76593321334145, 30.52442779062731,A4,black,6,v,green,20
33.34624901509963, 27.132620121470136,A2,magenta,6,*,red,20
40.13876242692539, 29.401815043449222,A3,blue,6,o,black,20
38.31348110184448, 42.74037673184167,A5,green,6,v,blue,20

